,City,Cloudiness,Country,Date,Humidity,Lat,Lng,Max Temp,Wind Speed
0,Ejido,44,VE,1548731521,91,8.55,-71.24,58.05,1.59
1,Harboore,36,DK,1548730200,92,56.62,8.18,21.2,3.36
2,Saint George,40,GR,1548730200,93,39.45,22.34,44.6,6.93
3,Chuy,44,UY,1548731528,93,-33.69,-53.46,75.69,7.63
4,Busselton,20,AU,1548731530,93,-33.64,115.35,69.93,11.77
5,Nome,40,US,1548730500,84,30.04,-94.42,56.12,3.36
6,Alofi,92,NU,1548731498,100,-19.06,-169.92,78.48,9.86
7,Simao,88,CN,1548731536,87,22.76,100.79,60.39,2.48
8,Broome,12,GB,1548730560,86,52.47,1.45,30.92,9.17
9,Avera,90,US,1548730500,47,33.19,-82.53,51.08,4.7
10,Kapaa,40,US,1548726960,49,22.08,-159.32,77.0,20.8
11,Villa Carlos Paz,0,AR,1548727200,94,-31.42,-64.5,77.0,5.82
12,Mataura,0,NZ,1548731547,78,-46.19,168.86,77.71,5.17
13,Hermanus,0,ZA,1548731550,88,-34.42,19.24,59.49,2.93
14,Vaini,40,IN,1548727200,93,15.34,74.49,60.8,5.82
15,Mogadishu,92,SO,1548731554,100,2.04,45.34,78.12,22.06
16,Cape Town,0,ZA,1548727200,77,-33.93,18.42,64.4,12.75
17,Ekhabi,0,RU,1548731559,77,53.51,142.97,-3.34,7.4
18,Punta Arenas,75,CL,1548727200,61,-53.16,-70.91,46.4,19.46
19,Ankang,64,CN,1548731563,73,32.73,108.99,36.0,2.48
20,Rikitea,8,PF,1548731566,98,-23.12,-134.97,80.91,13.33
21,NEDJO,48,ET,1548731568,65,9.5,35.5,57.01,2.71
22,Hobart,0,AU,1548729000,12,-42.88,147.33,87.8,17.22
23,Arraial do Cabo,0,BR,1548731572,88,-22.97,-42.02,77.4,15.68
24,Castro,40,CL,1548727200,87,-42.48,-73.76,55.4,9.17
25,Hamilton,90,CA,1548730380,85,43.26,-79.87,24.8,12.75
26,Klaksvik,88,FO,1548730200,100,62.23,-6.59,32.0,4.7
27,Kodiak,1,US,1548730500,36,39.95,-94.76,17.06,11.41
28,Lawton,1,US,1548730500,50,34.61,-98.39,41.0,9.17
29,Ushuaia,40,AR,1548727200,81,-54.81,-68.31,44.6,13.87
30,Eirunepe,76,BR,1548731589,91,-6.66,-69.87,76.09,4.16
31,Roald,44,NO,1548730200,100,62.58,6.12,32.0,12.75
32,Beloha,12,MG,1548731593,67,-25.17,45.06,71.59,13.89
33,Saint-Philippe,1,CA,1548729300,60,45.36,-73.48,-0.41,10.42
34,New Norfolk,0,AU,1548729000,12,-42.78,147.06,87.8,17.22
35,Togur,88,RU,1548731600,77,58.36,82.83,5.44,18.03
36,Najran,5,SA,1548730800,36,17.54,44.22,60.8,9.17
37,Bethel,90,US,1548730980,92,60.79,-161.76,30.2,5.82
38,Albany,20,US,1548730440,52,42.65,-73.75,12.02,4.7
39,Jamestown,0,AU,1548731466,94,-33.21,138.6,78.79,3.15
40,Aquiraz,20,BR,1548727200,83,-3.9,-38.39,80.6,6.93
41,Bilibino,36,RU,1548731614,39,68.06,166.44,-26.33,2.37
42,Port Alfred,0,ZA,1548731617,79,-33.59,26.89,72.76,19.37
43,Namibe,0,AO,1548731619,100,-15.19,12.15,73.62,1.7
44,Vestmannaeyjar,0,IS,1548731621,100,63.44,-20.27,25.69,12.88
45,Nuuk,64,GL,1548730200,61,64.17,-51.74,15.8,14.99
46,Hilo,75,US,1548726780,53,19.71,-155.08,73.94,25.28
47,Kavieng,36,PG,1548731627,98,-2.57,150.8,86.17,6.06
48,Wahiawa,40,US,1548730560,57,21.5,-158.02,77.0,14.99
49,Khatanga,48,RU,1548731632,55,71.98,102.47,-31.64,2.71
50,Deputatskiy,56,RU,1548731634,0,69.3,139.9,-33.67,3.94
51,Thompson,75,CA,1548727920,59,55.74,-97.86,-32.81,9.17
52,Nhulunbuy,75,AU,1548729000,74,-12.18,136.78,87.8,13.87
53,Ayan,44,TR,1548731641,86,40.67,33.6,27.36,1.59
54,Bredasdorp,0,ZA,1548730800,88,-34.53,20.04,71.6,3.36
55,Andres Bonifacio,0,PH,1548731645,66,16.42,120.59,75.19,1.36
56,Tuktoyaktuk,75,CA,1548727200,77,69.44,-133.03,6.8,6.93
57,Stege,64,DK,1548730200,100,54.99,12.28,32.0,11.41
58,Severo-Kurilsk,0,RU,1548731652,100,50.68,156.12,26.86,26.87
59,Shizunai,0,JP,1548731654,88,42.33,142.37,29.97,15.01
60,Aksarka,64,RU,1548731656,79,66.56,67.8,-18.19,3.94
61,Camacha,75,PT,1548729000,67,33.08,-16.33,59.0,5.82
62,East London,0,ZA,1548730800,88,-33.02,27.91,68.0,13.87
63,Bennettsville,90,US,1548730800,76,34.62,-79.68,46.22,4.7
64,Cherskiy,0,RU,1548731665,0,68.75,161.3,-30.16,5.17
65,Port Shepstone,0,ZA,1548731667,90,-30.74,30.45,72.63,24.4
66,Tiksi,24,RU,1548731669,0,71.64,128.87,-38.03,3.04
67,Gat,0,SN,1548729000,63,14.69,-16.54,66.2,13.87
68,Norman Wells,75,CA,1548727200,84,65.28,-126.83,1.4,2.24
69,Guerrero Negro,0,MX,1548731676,87,27.97,-114.04,56.43,4.94
70,Port Elizabeth,1,US,1548730560,71,39.31,-74.98,26.96,7.07
71,Seymchan,0,RU,1548731680,0,62.93,152.39,-36.1,2.15
72,Vestmanna,88,FO,1548730200,100,62.16,-7.17,32.0,4.7
73,San Pedro,20,AR,1548731607,76,-33.68,-59.66,81.72,7.4
74,Bilma,0,NE,1548731688,58,18.69,12.92,39.6,2.71
75,Fairbanks,90,US,1548728460,100,64.84,-147.72,24.08,3.15
76,Saldanha,12,PT,1548731692,91,41.42,-6.55,33.03,5.06
77,Butaritari,12,KI,1548731694,100,3.07,172.79,84.24,18.81
78,Longyearbyen,75,NO,1548730200,73,78.22,15.63,23.0,25.28
79,Barra Velha,40,BR,1548727200,88,-26.63,-48.68,82.4,7.63
80,Saskylakh,44,RU,1548731701,0,71.97,114.09,-39.88,2.71
81,Juneau,90,US,1548726960,95,58.3,-134.42,35.96,3.27
82,Jacareacanga,92,BR,1548731705,95,-6.22,-57.76,74.11,2.26
83,Pisco,90,PE,1548727200,83,-13.71,-76.2,77.0,10.29
84,Upernavik,56,GL,1548731710,98,72.79,-56.15,11.16,11.21
85,Cabo San Lucas,20,MX,1548730380,68,22.89,-109.91,69.8,6.93
86,La Peca,20,PE,1548731714,94,-5.61,-78.44,65.43,1.14
87,Sao Joao da Barra,0,BR,1548731716,96,-21.64,-41.05,81.04,14.23
88,Haines Junction,8,CA,1548731719,68,60.75,-137.51,-0.19,2.15
89,Poum,92,MK,1548731721,99,41.28,20.71,36.0,1.25
90,Vao,88,EE,1548731723,86,59.1,26.19,16.51,11.54
91,Dikson,0,RU,1548731725,97,73.51,80.55,-21.7,5.95
92,Bluff,92,AU,1548731727,91,-23.58,149.07,72.67,14.79
93,Kloulklubed,75,PW,1548730200,74,7.04,134.26,84.2,13.87
94,Obregon,1,US,1548730740,34,32.86,-114.79,67.82,2.15
95,Kuldiga,90,LV,1548730200,92,56.97,21.96,26.6,8.05
96,Maumere,64,ID,1548731736,98,-8.63,122.22,81.94,13.22
97,Ternate,40,PH,1548730800,57,14.29,120.72,80.6,13.87
98,Aklavik,75,CA,1548727200,78,68.22,-135.01,8.6,4.7
99,Skelleftea,92,SE,1548730200,84,64.75,20.95,3.2,2.24
100,Keti Bandar,0,PK,1548731745,100,24.14,67.45,66.96,7.63
101,Tokur,68,RU,1548731747,65,53.13,132.9,-5.86,2.59
102,Chokurdakh,64,RU,1548731749,46,70.62,147.9,-28.76,15.01
103,Havelock,1,US,1548730680,100,34.88,-76.9,33.08,3.36
104,Iqaluit,75,CA,1548727200,69,63.75,-68.52,-11.21,18.34
105,Suntar,44,RU,1548731756,72,62.16,117.65,-10.9,3.94
106,Burnie,24,AU,1548731758,95,-41.05,145.91,66.82,12.66
107,Atuona,56,PF,1548731760,99,-9.8,-139.03,81.76,19.48
108,Virginia Beach,1,US,1548730740,77,36.85,-75.98,30.92,4.7
109,Troitsko-Pechorsk,36,RU,1548731765,81,62.71,56.19,3.91,3.94
110,Adrar,0,DZ,1548727200,45,27.87,-0.29,46.4,6.93
111,Paamiut,20,GL,1548731769,100,61.99,-49.67,23.4,12.55
112,Regente Feijo,0,BR,1548727200,69,-22.22,-51.3,77.0,4.7
113,Ilulissat,80,GL,1548730200,72,69.22,-51.1,17.6,6.93
114,Dalhousie,0,IN,1548731776,44,32.54,75.98,24.61,2.71
115,Santa Cruz,1,US,1548730800,86,36.97,-122.03,62.6,2.15
116,Hobyo,0,SO,1548731781,87,5.35,48.53,73.8,16.24
117,Lais,80,ID,1548731783,72,0.79,120.42,82.84,2.04
118,Arandis,20,NA,1548731786,88,-22.42,14.98,56.61,2.26
119,Provideniya,0,RU,1548729000,78,64.42,-173.23,8.6,11.18
120,Torbay,75,CA,1548729840,100,47.66,-52.73,33.8,18.34
121,Georgetown,20,GY,1548727200,100,6.8,-58.16,73.4,4.7
122,Paracuru,40,BR,1548730800,83,-3.41,-39.03,80.6,6.93
123,Ust-Maya,48,RU,1548731797,35,60.42,134.54,-24.26,3.6
124,Sao Filipe,68,CV,1548731799,89,14.9,-24.5,74.16,14.0
125,Cidreira,44,BR,1548731801,88,-30.17,-50.22,76.05,3.94
126,Sinegorye,0,RU,1548731803,47,62.09,150.53,-31.19,2.37
127,Byron Bay,20,AU,1548729000,54,-28.65,153.62,91.4,10.29
128,North Bend,1,US,1548730560,79,43.41,-124.22,48.92,3.36
129,Namatanai,48,PG,1548731810,94,-3.66,152.44,85.68,10.54
130,Grand Gaube,40,MU,1548730800,94,-20.01,57.66,77.0,6.73
131,Mkushi,92,ZM,1548731814,99,-13.61,29.4,64.89,6.85
132,Luanda,40,AO,1548730800,83,-8.83,13.24,78.8,4.7
133,Vadinsk,76,RU,1548731818,91,53.69,43.04,13.81,5.39
134,Lompoc,1,US,1548730560,80,34.64,-120.46,59.0,4.7
135,Geraldton,75,CA,1548727200,61,49.72,-86.95,-18.41,4.7
136,Berlevag,8,NO,1548731825,100,70.86,29.09,-0.1,10.76
137,Sorong,32,ID,1548731827,100,-0.86,131.25,80.73,8.19
138,Kyaikto,8,MM,1548731829,82,17.31,97.01,77.4,3.15
139,Sri Aman,75,MY,1548727200,88,1.24,111.46,82.4,2.24
140,Avarua,40,CK,1548730800,83,-21.21,-159.78,84.2,12.75
141,Pacific Grove,1,US,1548730800,86,36.62,-121.92,60.8,1.92
142,Kavaratti,0,IN,1548731838,100,10.57,72.64,80.46,3.15
143,Carnarvon,68,ZA,1548731840,26,-30.97,22.13,59.89,2.93
144,Chino Valley,1,US,1548730500,22,34.76,-112.45,51.8,3.04
145,Victoria,75,BN,1548729000,78,5.28,115.24,86.0,6.93
146,Tieling,0,CN,1548731847,30,42.29,123.84,34.06,18.48
147,North Platte,75,US,1548726780,43,41.12,-100.77,24.98,9.17
148,Yellowknife,20,CA,1548727200,74,62.45,-114.38,-27.41,4.7
149,Gimli,8,CA,1548731782,69,50.63,-96.99,-15.85,12.21
150,Rio Claro,0,BR,1548731855,80,-22.41,-47.56,68.26,1.36
151,Ouadda,36,CF,1548731858,34,8.07,22.4,74.34,8.52
152,Lasa,75,CY,1548729000,87,34.92,32.53,51.8,5.82
153,Pangnirtung,76,CA,1548731862,78,66.15,-65.72,-0.91,3.15
154,Codrington,40,AU,1548727200,38,-28.95,153.24,91.4,10.29
155,Tomatlan,0,MX,1548731866,92,19.93,-105.25,63.49,2.15
156,Orlik,12,RU,1548731869,66,52.51,99.83,-19.18,2.82
157,Luorong,68,CN,1548731871,100,24.41,109.6,59.04,4.16
158,Qaanaaq,0,GL,1548731873,80,77.48,-69.36,-8.74,8.52
159,Clyde River,90,CA,1548730800,76,70.47,-68.59,-7.61,14.99
160,Seoul,0,KR,1548730800,23,37.57,126.98,37.4,4.7
161,Nikolskoye,75,RU,1548730800,85,59.7,30.79,12.2,8.95
162,Ribeira Grande,36,PT,1548731882,100,38.52,-28.7,59.04,6.62
163,Severobaykalsk,20,RU,1548731884,52,55.65,109.32,-12.38,3.71
164,Erzin,40,TR,1548730200,66,36.95,36.2,55.4,9.17
165,Barrow,0,AR,1548731888,71,-38.31,-60.23,71.46,6.73
166,Faanui,68,PF,1548731891,100,-16.48,-151.75,81.63,22.84
167,Naze,36,NG,1548731893,95,5.43,7.07,72.9,3.04
168,Sidi Ali,0,DZ,1548731895,75,36.1,0.42,49.72,7.29
169,Cabedelo,20,BR,1548730800,100,-6.97,-34.84,75.2,5.82
170,Navalmoral de la Mata,0,ES,1548731899,89,39.89,-5.54,33.3,3.15
171,Dingle,0,PH,1548731901,57,11.0,122.67,80.59,17.13
172,Jinja,24,UG,1548731904,89,0.44,33.21,63.31,0.92
173,Te Anau,36,NZ,1548731753,65,-45.41,167.72,69.39,3.94
174,De-Kastri,0,RU,1548731908,100,51.48,140.77,6.12,4.38
175,Campo Grande,0,BR,1548730800,78,-20.46,-54.62,73.4,5.82
176,Adre,0,TD,1548731913,43,13.47,22.2,60.16,4.16
177,Katsuura,40,JP,1548731220,45,33.93,134.5,46.4,17.22
178,Gap,0,FR,1548731917,100,44.56,6.08,16.11,2.15
179,Narsaq,0,GL,1548730200,43,60.91,-46.05,10.4,13.87
180,Tezu,88,IN,1548731922,48,27.93,96.16,55.12,0.36
181,Washim,0,IN,1548731924,55,20.1,77.14,50.67,4.83
182,Zhangye,0,CN,1548731926,61,38.94,100.46,12.01,4.72
183,Nanlong,68,CN,1548731928,100,31.35,106.05,47.07,5.17
184,Nakhon Phanom,36,LA,1548727200,60,17.4,104.79,75.2,5.82
185,Damietta,0,EG,1548727200,93,31.42,31.81,51.8,4.7
186,Tuatapere,0,NZ,1548731935,60,-46.13,167.69,71.55,9.98
187,Yar-Sale,56,RU,1548731937,80,66.83,70.83,-8.2,6.62
188,Shingu,40,JP,1548730800,42,33.72,135.99,46.4,20.8
189,Cap Malheureux,40,MU,1548730800,94,-19.98,57.61,77.0,6.73
190,Dhuburi,100,IN,1548731944,95,26.03,89.97,55.12,3.04
191,San Luis,0,AR,1548731946,49,-33.3,-66.34,85.86,7.96
192,Buraydah,0,SA,1548730800,100,26.33,43.97,48.2,5.82
193,Ginir,0,ET,1548731951,76,7.14,40.71,46.71,2.59
194,Souillac,90,FR,1548729000,93,45.6,-0.6,37.4,3.36
195,Nicoya,0,CR,1548730800,57,10.15,-85.45,80.6,18.34
196,Inuvik,75,CA,1548727200,78,68.36,-133.71,8.6,4.7
197,Mahebourg,40,MU,1548730800,94,-20.41,57.7,77.0,4.27
198,Nizhniy Kuranakh,48,RU,1548731962,68,58.84,125.49,-2.39,3.49
199,Hargeysa,80,SO,1548731964,97,9.56,44.06,56.43,3.6
200,Vardo,1,US,1548730800,48,39.62,-77.74,32.0,3.36
201,Kahului,40,US,1548730560,55,20.89,-156.47,75.02,25.28
202,Hohhot,12,CN,1548727200,26,40.81,111.65,21.2,2.24
203,Gorontalo,80,ID,1548731973,71,0.54,123.06,84.06,2.71
204,Yuzhno-Kurilsk,76,RU,1548731975,100,44.03,145.86,28.89,22.62
205,Vanavara,36,RU,1548731977,48,60.35,102.28,-8.78,6.62
206,Vostok,36,RU,1548731979,63,46.45,135.83,10.62,2.93
207,Isiro,92,CD,1548731982,79,2.77,27.62,75.06,2.82
208,Virpur,0,IN,1548731984,61,21.71,74.42,47.07,6.06
209,Hasaki,20,JP,1548730800,33,35.73,140.83,48.2,19.46
210,Verkhnyaya Inta,68,RU,1548731988,76,65.99,60.32,5.22,8.08
211,Hithadhoo,64,MV,1548731990,100,-0.6,73.08,82.62,11.99
212,Suez,0,EG,1548731992,72,29.97,32.54,35.28,2.48
213,Mar del Plata,0,AR,1548731995,44,-46.43,-67.52,64.98,23.29
214,Aleksandrov Gay,88,RU,1548731997,85,50.14,48.57,17.01,6.62
215,Grindavik,0,IS,1548730800,68,63.84,-22.43,24.8,13.87
216,Baykit,44,RU,1548732001,71,61.68,96.39,-11.44,7.63
217,Waingapu,80,ID,1548732003,86,-9.65,120.26,81.81,7.07
218,Sal Rei,40,CV,1548727200,83,16.18,-22.92,69.8,16.11
219,Falam,76,MM,1548732007,88,22.91,93.68,58.59,1.25
220,Omboue,80,GA,1548732010,100,-1.57,9.26,81.99,3.38
221,Cockburn Town,24,TC,1548732008,98,21.46,-71.14,78.75,9.75
222,Salalah,40,OM,1548730200,77,17.01,54.1,69.8,3.36
223,Lebu,0,ET,1548727200,50,8.96,38.73,55.4,6.93
224,Hualmay,68,PE,1548732018,86,-11.1,-77.61,70.06,2.82
225,Kommunar,75,RU,1548730800,85,59.62,30.39,12.2,8.95
226,Bandarbeyla,92,SO,1548732023,100,9.49,50.81,77.85,17.25
227,Cabinda,92,AO,1548732025,100,-5.56,12.19,81.54,1.81
228,Macon,40,US,1548730500,51,32.84,-83.63,52.88,6.93
229,Tautira,75,PF,1548730800,83,-17.73,-149.15,80.6,23.04
230,Udachnyy,48,RU,1548732031,0,66.42,112.4,-34.48,3.15
231,Gerga,90,RU,1548730800,86,42.35,47.96,39.2,8.95
232,Muros,75,ES,1548729000,93,42.77,-9.06,46.4,6.93
233,Bandrele,0,YT,1548730800,88,-12.91,45.19,78.8,3.36
234,Port Blair,8,IN,1548732040,98,11.67,92.75,82.71,12.55
235,Victor Harbor,0,AU,1548730800,47,-35.55,138.62,78.8,10.29
236,Caluquembe,92,AO,1548732044,97,-13.78,14.68,63.72,1.59
237,Kallaste,90,EE,1548730200,78,58.66,27.16,15.8,8.05
238,Kruisfontein,0,ZA,1548732049,82,-34.0,24.73,67.14,12.77
239,Nanortalik,0,GL,1548732051,100,60.14,-45.24,23.62,10.31
240,Tecoanapa,20,MX,1548729660,74,16.99,-99.26,78.8,6.93
241,Columbus,90,US,1548730680,61,32.46,-84.99,53.06,4.7
242,Igrim,24,RU,1548732058,83,63.19,64.42,3.51,7.29
243,Forbes,0,AU,1548732060,60,-33.38,148.01,90.49,11.43
244,Tres Arroyos,0,AR,1548732062,71,-38.38,-60.28,71.46,6.73
245,Abha,5,SA,1548730800,54,18.22,42.5,57.2,1.92
246,Nelson,36,CA,1548732067,84,49.49,-117.29,17.37,1.81
247,Biltine,0,TD,1548732069,61,14.53,20.93,55.44,2.93
248,Brightwater,68,NZ,1548732071,54,-41.37,173.11,81.18,2.71
249,Takoradi,0,GH,1548732073,100,4.89,-1.75,80.46,9.31
250,Iracoubo,92,GF,1548732075,95,5.48,-53.21,75.06,5.17
251,Sitka,0,US,1548732078,51,37.17,-99.65,29.16,10.42
252,Araouane,0,ML,1548732080,48,18.9,-3.53,46.84,7.4
253,Ponta Delgada,75,PT,1548729000,82,37.73,-25.67,55.4,1.12
254,Comodoro Rivadavia,0,AR,1548730800,37,-45.87,-67.48,68.0,19.46
255,Jalu,24,LY,1548732086,43,29.03,21.55,49.59,14.34
256,Pevek,24,RU,1548732089,97,69.7,170.27,-21.97,1.59
257,Rocha,56,UY,1548731826,97,-34.48,-54.34,72.9,3.04
258,Nacala,0,MZ,1548732093,100,-14.56,40.69,77.44,10.42
259,Vanimo,92,PG,1548732037,100,-2.67,141.3,80.01,8.97
260,Contamana,68,PE,1548732097,96,-7.35,-75.01,74.79,1.92
261,Palmer,90,US,1548731280,58,61.6,-149.11,35.06,10.29
262,Ibipeba,0,BR,1548732102,71,-11.64,-42.01,72.22,11.54
263,Inirida,64,CO,1548732104,82,3.87,-67.92,78.16,1.7
264,Chippewa Falls,90,US,1548731700,79,44.94,-91.39,8.24,10.29
265,Yulara,75,AU,1548730800,29,-25.24,130.99,89.6,10.29
266,Trinidad,32,UY,1548732110,79,-33.52,-56.9,80.19,7.18
267,Zelenoborsk,88,RU,1548732113,83,61.47,64.05,9.76,5.5
268,Ancud,75,CL,1548730800,93,-41.87,-73.83,53.6,6.93
269,Bagdarin,0,RU,1548732117,47,54.44,113.59,-10.76,8.63
270,Nemuro,75,JP,1548730800,79,43.32,145.57,28.4,13.87
271,San Quintin,0,PH,1548732121,48,17.54,120.52,76.99,5.28
272,Leh,12,IN,1548732123,0,34.16,77.58,-41.05,1.14
273,Luganville,36,VU,1548732126,100,-15.51,167.18,80.14,7.29
274,Hervey Bay,40,AU,1548730800,43,-25.3,152.85,87.8,17.22
275,Batagay-Alyta,48,RU,1548732130,0,67.8,130.41,-39.25,2.26
276,Okhotsk,0,RU,1548732132,100,59.36,143.24,-17.65,7.29
277,Jutai,80,BR,1548732134,99,-1.71,-47.89,74.97,2.71
278,Nakhon Thai,0,TH,1548730800,47,17.1,100.84,78.8,4.7
279,Qaqortoq,0,GL,1548730200,43,60.72,-46.03,10.4,13.87
280,Robstown,1,US,1548731700,90,27.79,-97.67,62.96,3.36
281,Ostrovnoy,0,RU,1548732143,62,68.05,39.51,-8.06,7.96
282,Puerto Ayora,0,EC,1548732145,97,-0.74,-90.35,79.96,6.4
283,Ormara,0,PK,1548732148,99,25.21,64.64,64.44,4.38
284,Kamina,44,CD,1548732150,95,-8.74,25.0,65.11,3.04
285,Saiha,44,IN,1548732152,71,22.49,92.98,65.02,1.81
286,Cangzhou,44,CN,1548732154,56,38.3,116.85,35.77,9.19
287,Novosheshminsk,0,RU,1548732156,59,55.06,51.22,-6.67,4.61
288,Mongu,48,ZM,1548732158,89,-15.27,23.14,68.49,4.61
289,Airai,92,TL,1548732161,94,-8.93,125.41,72.76,1.92
290,Wiang Sa,20,TH,1548730800,74,8.64,99.37,84.2,6.93
291,San Cristobal,75,EC,1548730800,93,-0.39,-78.55,57.2,3.36
292,Dunedin,88,NZ,1548731903,81,-45.87,170.5,71.46,3.94
293,Flinders,20,AU,1548730800,58,-34.58,150.85,87.8,12.75
294,Aksay,0,RU,1548730800,92,47.27,39.86,21.2,2.24
295,Magadan,20,RU,1548732174,100,59.56,150.8,-0.91,6.62
296,Westport,88,IE,1548732176,100,53.8,-9.52,41.76,13.22
297,Lazaro Cardenas,5,MX,1548729900,25,28.39,-105.62,51.8,5.82
298,Fairhope,1,US,1548730560,92,30.52,-87.9,50.0,5.73
299,Mehamn,12,NO,1548732182,100,71.03,27.85,-2.98,7.63
300,Coquimbo,20,CL,1548730800,88,-29.95,-71.34,62.6,5.82
301,Zambezi,24,ZM,1548732187,95,-13.55,23.12,65.16,7.07
302,Marion,1,US,1548730560,77,38.35,-97.02,28.4,5.82
303,Aykhal,64,RU,1548732191,0,65.95,111.51,-33.71,3.71
304,Kaniama,92,CD,1548732193,100,-7.57,24.18,65.29,2.37
305,Carballo,0,ES,1548729000,87,43.21,-8.69,48.2,8.05
306,Skeldon,92,GY,1548732198,97,5.88,-57.13,79.06,13.0
307,Buffalo,90,US,1548730560,55,42.89,-78.88,35.06,12.33
308,Walcz,64,PL,1548732202,90,53.28,16.47,27.54,3.15
309,Tasiilaq,80,GL,1548730200,85,65.61,-37.64,19.4,13.87
310,Livenka,32,RU,1548732207,77,50.74,40.23,14.62,3.27
311,Cayenne,75,GF,1548730800,94,4.94,-52.33,77.0,4.7
312,Kungurtug,24,RU,1548732211,60,50.6,97.53,-17.2,8.63
313,Fortuna,0,ES,1548729000,50,38.18,-1.13,55.4,20.8
314,Bendigo,0,AU,1548732216,91,-36.76,144.28,82.62,4.72
315,Manzhouli,24,CN,1548732218,46,49.6,117.43,8.73,13.0
316,Rio Verde de Mato Grosso,32,BR,1548732220,90,-18.92,-54.84,69.16,2.48
317,Buchanan,40,LR,1548727200,94,5.88,-10.05,75.2,6.73
318,Cairns,40,AU,1548730980,83,-16.92,145.77,82.4,8.05
319,Mandiana,0,GN,1548732226,52,10.62,-8.7,58.86,4.61
320,Sosnovo-Ozerskoye,0,RU,1548732229,57,52.53,111.54,-8.33,11.54
321,Khorramshahr,20,IR,1548730800,87,30.43,48.18,55.4,9.17
322,Bonthe,0,SL,1548732233,91,7.53,-12.5,77.31,5.17
323,Marsa Matruh,40,EG,1548730800,75,31.35,27.25,46.4,9.17
324,Newport,75,GB,1548730200,93,51.59,-3.0,41.0,6.93
325,Bathsheba,20,BB,1548730800,73,13.22,-59.52,75.2,13.87
326,Norilsk,0,RU,1548731987,0,69.35,88.2,-44.38,2.82
327,Rio Tinto,20,BR,1548730800,100,-6.8,-35.08,75.2,5.82
328,Bambous Virieux,40,MU,1548730800,94,-20.34,57.76,77.0,4.27
329,Marfino,75,RU,1548730800,92,56.07,37.56,23.0,6.71
330,Daru,0,SL,1548732251,68,7.99,-10.85,70.42,6.29
331,Espanola,92,CA,1548732021,54,46.27,-81.77,-5.36,11.88
332,Constitucion,75,MX,1548730200,15,23.99,-104.67,57.2,6.93
333,Winnemucca,1,US,1548730560,59,40.97,-117.74,41.0,11.41
334,Havoysund,20,NO,1548730200,72,71.0,24.66,15.8,35.57
335,Loikaw,36,MM,1548732261,93,19.67,97.21,66.24,2.15
336,Hay River,40,CA,1548730800,75,60.82,-115.79,-20.21,3.36
337,Santa Vitoria do Palmar,44,BR,1548732266,93,-33.52,-53.37,75.69,7.63
338,Cuamba,8,MZ,1548732268,97,-14.8,36.54,63.72,4.94
339,Boueni,0,YT,1548730800,88,-12.9,45.08,78.8,3.36
340,Takahagi,75,JP,1548730800,69,36.74,140.69,48.2,20.8
341,Santa Quiteria,0,ES,1548732274,73,37.67,-1.69,41.04,5.17
342,Jardim,20,BR,1548732277,66,-21.48,-56.15,78.07,9.64
343,Macas,44,EC,1548732279,89,-2.3,-78.12,64.89,3.38
344,Port Hawkesbury,75,CA,1548731760,72,45.62,-61.36,15.8,9.17
345,Olinda,90,EC,1548730800,100,-2.03,-79.75,75.2,3.36
346,Reconquista,0,AR,1548732285,74,-29.14,-59.64,82.71,13.11
347,Filingue,0,NE,1548732287,38,14.35,3.32,58.72,7.07
348,Tilichiki,92,RU,1548732290,81,60.47,166.1,23.89,12.44
349,Itapaci,80,BR,1548732140,89,-14.95,-49.55,69.66,2.59
350,Gilgit,20,PK,1548732294,76,35.92,74.31,-3.29,0.36
351,Mfou,40,CM,1548727200,100,3.72,11.64,71.6,2.48
352,Labuhan,48,ID,1548732298,83,-2.54,115.51,82.57,3.15
353,Inhambane,56,MZ,1548732301,94,-23.87,35.38,74.34,9.53
354,Padang,20,ID,1548730800,74,-0.92,100.36,84.2,2.24
355,Semnan,12,IR,1548732305,74,35.58,53.39,39.69,2.93
356,Husavik,8,CA,1548732307,69,50.56,-96.99,-15.85,12.21
357,Fort Nelson,90,CA,1548730200,92,58.81,-122.69,12.2,4.7
358,Vega de Alatorre,0,MX,1548732311,88,20.03,-96.65,61.51,7.18
359,Cabrero,0,CL,1548730800,77,-37.04,-72.4,75.2,8.05
360,Tapalpa,8,MX,1548732316,72,19.94,-103.76,49.81,1.92
361,Natal,20,BR,1548730800,88,-5.81,-35.21,77.0,6.93
362,Ola,0,RU,1548732320,100,59.58,151.3,-3.29,5.61
363,Tangwani,0,PK,1548732322,89,28.28,69.0,49.36,2.59
364,Weinan,0,CN,1548730800,42,34.5,109.46,46.4,2.24
365,Lavrentiya,0,RU,1548732327,65,65.58,-170.99,3.6,11.65
366,Buala,92,SB,1548732329,89,-8.15,159.59,84.06,11.43
367,Kjollefjord,12,NO,1548732331,100,70.95,27.35,-2.98,7.63
368,Turukhansk,0,RU,1548732334,0,65.8,87.96,-40.28,3.6
369,Garowe,44,SO,1548732336,90,8.41,48.48,61.2,6.4
370,Prikubanskiy,75,RU,1548730800,93,44.95,39.03,35.6,4.47
371,Anloga,20,GH,1548727200,88,5.79,0.9,80.6,6.93
372,Berezovyy,24,RU,1548732342,55,51.67,135.7,5.85,3.15
373,Murray Bridge,0,AU,1548732345,67,-35.12,139.28,79.69,3.94
374,Taywarah,48,AF,1548732347,77,33.35,64.42,18.76,2.48
375,Mount Gambier,0,AU,1548730800,34,-37.83,140.78,82.4,13.87
376,Leku,0,ET,1548732351,62,6.87,38.44,47.43,3.94
377,Kaeo,0,NZ,1548732353,39,-35.1,173.78,87.12,10.42
378,Aripuana,76,BR,1548732355,95,-9.17,-60.63,75.42,2.26
379,Voloshka,88,RU,1548732357,77,61.33,40.09,9.31,11.32
380,Thio,0,NC,1548730800,48,-21.61,166.22,87.8,20.8
381,Enkoping,92,SE,1548730200,86,59.64,17.08,33.8,3.36
382,Sept-Iles,5,CA,1548727200,51,50.2,-66.38,-13.01,11.41
383,Port Hedland,0,AU,1548730800,59,-20.31,118.58,89.6,10.29
384,Kununurra,44,AU,1548730800,50,-15.77,128.74,95.0,10.29
385,Sungairaya,24,ID,1548732371,75,0.7,108.9,85.72,3.6
386,Oranjestad,40,AW,1548730800,78,12.52,-70.03,78.8,14.99
387,Bouake,0,CI,1548732375,47,7.69,-5.02,71.19,0.47
388,Ponta do Sol,24,BR,1548732377,91,-20.63,-46.0,64.89,5.61
389,Umm Lajj,0,SA,1548732379,100,25.02,37.27,52.69,13.78
390,Springdale,40,US,1548730680,58,36.19,-94.13,28.04,10.29
391,Laguna,32,MX,1548732384,68,27.52,-110.01,58.77,2.26
392,Manado,40,ID,1548730800,83,1.49,124.85,82.4,3.36
393,Bonavista,20,CA,1548732388,93,48.65,-53.11,31.5,18.03
394,Talnakh,0,RU,1548732391,0,69.49,88.39,-44.38,2.82
395,Praya,40,ID,1548730800,66,-8.71,116.27,87.8,8.05
396,Bella Union,88,CO,1548732395,78,8.5,-73.35,68.94,2.37
397,Kizukuri,75,JP,1548730800,69,40.81,140.39,35.6,3.36
398,Banyumas,8,ID,1548732399,92,-7.52,109.29,85.32,5.5
399,Iskateley,0,RU,1548732402,60,67.68,53.15,-1.99,14.0
400,Qinhuangdao,68,CN,1548732404,25,39.94,119.59,36.0,7.63
401,Orange,32,AU,1548732406,49,-33.28,149.1,89.46,8.08
402,Nishihara,20,JP,1548731220,23,35.74,139.53,48.2,13.87
403,Donskoy,0,RU,1548730800,92,47.12,39.32,21.2,2.24
404,Cowra,0,AU,1548732413,70,-33.84,148.69,86.71,7.85
405,Suksun,0,RU,1548732415,59,57.15,57.4,-6.71,3.38
406,Wilmington Island,1,US,1548731700,81,32.0,-80.97,46.4,3.36
407,Yumbe,32,UG,1548732419,38,3.47,31.25,78.93,10.98
408,Sechelt,75,CA,1548730800,93,49.47,-123.76,37.4,2.24
409,Jalpan,0,MX,1548732424,84,19.0,-100.36,42.66,1.81
410,Walvis Bay,92,NA,1548730800,88,-22.95,14.51,62.6,3.36
411,Pakokku,0,MM,1548732429,85,21.33,95.09,72.0,1.92
412,Bayshore Gardens,1,US,1548731700,86,27.43,-82.59,51.98,9.08
413,Buchmany,88,UA,1548732433,95,51.07,28.04,36.0,12.77
414,Hofn,56,IS,1548732435,100,64.25,-15.21,28.08,17.81
415,Lapua,75,FI,1548730200,85,62.97,23.01,12.2,10.29
416,Karratha,0,AU,1548732439,45,-20.74,116.85,92.56,6.62
417,Baracoa,20,CU,1548732442,100,20.35,-74.5,75.01,7.4
418,Calvia,20,ES,1548730800,76,39.57,2.51,50.0,3.36
419,Puerto Escondido,0,MX,1548732446,100,15.86,-97.07,81.04,13.33
420,Odienne,0,CI,1548732448,55,9.51,-7.57,59.49,2.26
421,Sydney,0,AU,1548730800,58,-33.85,151.22,93.2,18.34
422,Ugoofaaru,64,MV,1548732452,99,5.67,73.0,82.12,10.2
423,Great Yarmouth,56,GB,1548730200,86,52.61,1.73,30.2,9.17
424,Presidencia Roque Saenz Pena,32,AR,1548732457,70,-26.79,-60.44,83.34,12.66
425,Ucluelet,24,CA,1548732222,99,48.94,-125.55,34.65,2.93
426,Lorengau,24,PG,1548732461,94,-2.02,147.27,84.87,10.42
427,Vandavasi,75,IN,1548730800,83,12.51,79.61,77.0,4.7
428,Khani,75,GE,1548730800,93,41.96,42.96,42.8,4.7
429,Dzhebariki-Khaya,36,RU,1548732468,0,62.22,135.8,-32.95,2.71
430,Usvyaty,68,RU,1548732470,84,55.75,30.75,16.69,11.99
431,Phalombe,64,MW,1548732472,96,-15.81,35.65,64.8,3.38
432,Esperance,75,TT,1548730800,83,10.24,-61.45,77.0,5.95
433,Grand Forks,90,US,1548731700,78,47.91,-97.06,-0.94,13.87
434,Vila Velha,40,BR,1548730800,83,-3.71,-38.6,80.6,6.93
435,Vologda,92,RU,1548732481,86,59.22,39.89,16.47,9.42
436,Lagos,20,NG,1548727200,94,6.46,3.39,78.8,6.85
437,Palimbang,20,PH,1548730800,44,14.9,120.78,82.4,11.41
438,Kokopo,20,PG,1548732487,93,-4.34,152.27,85.68,7.4
439,Coahuayana,0,MX,1548732490,62,18.62,-100.35,54.27,2.15
440,Oistins,20,BB,1548730800,73,13.07,-59.53,75.2,13.87
441,Pacifica,75,US,1548730560,77,37.61,-122.49,60.8,13.87
442,Alice Springs,32,AU,1548730800,23,-23.7,133.88,95.0,12.75
443,Novikovo,64,UA,1548732498,100,45.05,34.56,31.5,5.17
444,Vila Franca do Campo,75,PT,1548729000,82,37.72,-25.43,55.4,1.12
445,Kudahuvadhoo,68,MV,1548732503,100,2.67,72.89,81.18,12.88
446,Hirara,20,JP,1548730800,56,24.8,125.28,73.4,9.17
447,Sabang,92,PH,1548732507,90,13.72,123.58,75.24,13.67
448,Jasper,76,US,1548731700,71,33.83,-87.28,55.94,5.28
449,Marawi,64,PH,1548732512,80,8.0,124.29,74.52,3.38
450,Whitefish,1,US,1548730500,87,48.41,-114.33,10.94,2.48
451,Recife,64,BR,1548732516,90,-28.48,-48.99,71.73,2.59
452,Kemin,0,KG,1548732518,74,42.79,75.7,7.02,4.61
453,Hutchinson,1,US,1548730560,70,38.06,-97.93,26.06,5.82
454,Henties Bay,92,NA,1548732522,100,-22.12,14.28,62.01,4.27
455,Moree,56,AU,1548730800,26,-29.46,149.84,93.2,14.99
456,Vasvar,40,HU,1548729900,100,47.05,16.8,30.2,4.7
457,Rio Gallegos,0,AR,1548730800,80,-51.62,-69.22,48.2,9.17
458,Tupik,48,RU,1548732531,61,54.43,119.94,-4.64,3.49
459,Kwinana,0,AU,1548730800,39,-32.25,115.77,86.0,14.99
460,Kaitangata,24,NZ,1548732535,86,-46.28,169.85,73.71,3.15
461,Half Moon Bay,1,US,1548730560,87,37.46,-122.43,60.8,6.93
462,Osmena,0,PH,1548732540,83,12.17,124.59,79.96,13.22
463,Taltal,12,CL,1548732542,94,-25.41,-70.49,61.2,1.81
464,Ixtapa,5,MX,1548730020,94,20.71,-105.21,69.8,1.36
465,Bjornevatn,12,NO,1548730200,83,69.67,29.98,-7.61,14.99
466,Kholodnyy,0,RU,1548732549,0,62.72,147.95,-31.87,3.15
467,Zyryanka,0,RU,1548732551,50,65.73,150.89,-30.16,3.71
468,Carndonagh,68,IE,1548732553,90,55.25,-7.27,41.94,14.9
469,Moron,0,VE,1548732555,93,10.49,-68.2,64.26,2.26
470,Izhma,24,RU,1548732557,75,65.01,53.91,-2.93,4.5
471,Kamariotissa,75,GR,1548732000,93,40.48,25.47,57.2,9.17
472,Luau,44,CD,1548732562,97,-10.7,22.23,65.61,2.15
473,Key Largo,1,US,1548730560,86,25.09,-80.45,50.18,10.2
474,Verkhoyansk,44,RU,1548732566,0,67.55,133.39,-51.71,0.25
475,Takestan,90,IR,1548730800,100,36.07,49.69,41.0,9.17
476,San Diego de los Banos,44,CU,1548732570,94,22.65,-83.37,57.37,3.38
477,Ondangwa,36,NA,1548730800,73,-17.91,15.98,75.2,4.7
478,Kemptville,90,CA,1548730800,49,45.02,-75.64,1.04,14.99
479,Kraluv Dvur,0,CZ,1548729000,80,49.95,14.03,35.6,13.87
480,Faya,5,SA,1548730800,54,18.39,42.45,57.2,2.37
481,Marienburg,75,DE,1548730200,89,52.12,9.98,33.8,12.75
482,Vallenar,68,CL,1548732583,90,-28.58,-70.76,64.84,1.59
483,Belaya Gora,48,RU,1548732586,0,68.54,146.19,-35.11,3.94
484,Laukaa,90,FI,1548730200,85,62.42,25.95,12.2,6.93
485,Quepos,0,CR,1548730800,68,9.43,-84.16,69.8,17.22
486,Skogn,80,NO,1548732592,85,63.7,11.19,8.01,2.37
487,Kirovskiy,0,RU,1548732594,68,45.09,133.51,17.32,3.27
488,Yumen,8,CN,1548732597,64,40.29,97.04,9.54,1.92
489,Macklin,0,CA,1548732599,63,52.34,-109.94,-0.59,9.64
490,Stange,0,NO,1548730200,84,60.72,11.19,6.8,2.37
491,Okoneshnikovo,0,RU,1548732603,75,54.84,75.08,-16.79,10.65
492,Antalaha,48,MG,1548732606,99,-14.9,50.28,76.27,10.2
493,Bull Savanna,36,JM,1548732608,91,17.89,-77.59,69.66,2.59
494,Taoudenni,0,ML,1548732610,52,22.68,-3.98,44.86,2.82
495,Beringovskiy,24,RU,1548732613,96,63.05,179.32,2.74,4.83
496,Xuddur,0,SO,1548732615,82,4.12,43.89,67.09,12.1
497,Naron,40,ES,1548730800,81,43.52,-8.15,50.0,13.87
498,Balogo,80,PH,1548732619,100,12.98,124.02,77.49,19.71
499,Riohacha,0,CO,1548732622,100,11.54,-72.91,74.79,6.17
500,Santa Marta,40,CO,1548730800,83,11.24,-74.21,80.6,4.7
501,Yacuiba,64,AR,1548732361,91,-22.01,-63.68,72.81,4.61
502,Nitra,76,SK,1548730800,92,48.31,18.09,35.6,1.12
503,Carutapera,80,BR,1548732631,95,-1.2,-46.02,77.49,6.17
504,Thurso,88,GB,1548730200,100,58.6,-3.52,33.8,6.93
505,Goundam,0,ML,1548732635,54,16.42,-3.66,56.7,9.86
506,Kamiichi,75,JP,1548730800,64,36.7,137.36,39.2,4.7
507,Neiafu,40,TO,1548730800,66,-18.65,-173.98,84.2,16.11
508,Conakry,0,GN,1548732642,100,9.52,-13.7,80.28,7.74
509,Okha,0,RU,1548732644,77,53.59,142.95,-3.34,7.4
510,Wadi Musa,0,JO,1548732646,88,30.32,35.48,39.15,2.15
511,Garissa,8,KE,1548732649,86,-0.46,39.64,70.65,6.17
512,Praia da Vitoria,75,PT,1548727200,87,38.73,-27.07,55.4,6.96
513,Isaka,48,CD,1548732653,97,-2.81,17.72,72.09,2.15
514,San Patricio,8,PY,1548732655,62,-26.98,-56.83,82.17,4.83
515,Coos Bay,1,US,1548730560,79,43.37,-124.22,48.92,3.36
516,Inyonga,76,TZ,1548732659,93,-6.72,32.06,64.44,3.15
517,Teguldet,80,RU,1548732662,57,57.31,88.17,2.7,11.32
518,Shahr-e Babak,36,IR,1548732664,77,30.12,55.12,43.51,11.54
519,Carbonia,20,IT,1548732000,70,39.17,8.53,46.4,8.05
520,Wamba,36,CD,1548732668,78,2.14,27.99,74.52,2.82
521,Dafeng,56,CN,1548732670,70,33.2,120.46,47.97,6.96
522,Puerto del Rosario,0,ES,1548730800,77,28.5,-13.86,60.8,13.87
523,Asyut,0,EG,1548730800,90,27.18,31.19,42.8,3.27
524,Shorewood,75,US,1548731700,77,43.09,-87.89,6.98,17.22
525,Morgan City,90,US,1548731700,96,29.7,-91.21,57.02,5.61
526,Riviere-au-Renard,5,CA,1548730800,63,49.0,-64.4,-5.81,6.93
527,Khorixas,0,NA,1548732683,46,-20.37,14.96,54.31,2.82
